stop_id,stop_code,stop_name,stop_lat,stop_lon
9400ZZMAABM1,mantpmaw,"Cheetham Hill,Abraham Moss (Manchester Metrolink)",53.51046,-2.2355
9400ZZMAABM2,mantpmda,"Cheetham Hill,Abraham Moss (Manchester Metrolink)",53.51091,-2.23611
9400ZZMAAIR1,mantwjmp,"Manchester Airport,Manchester Airport (Manchester Metrolink)",53.36537,-2.27247
9400ZZMAALT1,mantpmjm,"Altrincham,Altrincham (Manchester Metrolink)",53.38745,-2.34741
9400ZZMAAMO1,mantwdpw,"Ashton Moss,Ashton Moss (Manchester Metrolink)",53.48373,-2.12194
9400ZZMAAMO2,mantwdta,"Ashton Moss,Ashton Moss (Manchester Metrolink)",53.4835,-2.12203
9400ZZMAANC1,mantpjmd,"Salford Quays,Anchorage (Manchester Metrolink)",53.47426,-2.28608
9400ZZMAANC2,mantpjmg,"Salford Quays,Anchorage (Manchester Metrolink)",53.47429,-2.28594
9400ZZMAAUD1,mantwdpj,"Audenshaw,Audenshaw (Manchester Metrolink)",53.47822,-2.13096
9400ZZMAAUD2,mantwdpm,"Audenshaw,Audenshaw (Manchester Metrolink)",53.47821,-2.13124
9400ZZMAAUL1,mantwdtp,"Ashton Under Lyne,Ashton-Under-Lyne (Manchester Metrolink)",53.49036,-2.09798
9400ZZMAAUL2,mantwdtw,"Ashton Under Lyne,Ashton-Under-Lyne (Manchester Metrolink)",53.49031,-2.09811
9400ZZMAAWT1,mantwdtg,"Ashton Moss,Ashton West (Manchester Metrolink)",53.4903,-2.10974
9400ZZMAAWT2,mantwdtj,"Ashton Moss,Ashton West (Manchester Metrolink)",53.49017,-2.10992
9400ZZMABAG1,mantwgwm,"Baguley,Baguley (Manchester Metrolink)",53.39676,-2.29255
9400ZZMABAG2,mantwgwp,"Baguley,Baguley (Manchester Metrolink)",53.39684,-2.29279
9400ZZMABAR1,mantwgpj,"Chorltonville,Barlow Moor Road (Manchester Metrolink)",53.43278,-2.26935
9400ZZMABAR2,mantwgpm,"Chorltonville,Barlow Moor Road (Manchester Metrolink)",53.43286,-2.26939
9400ZZMABKS1,mantpmgt,"Brooklands,Brooklands (Manchester Metrolink)",53.41727,-2.32579
9400ZZMABKS2,mantpmgp,"Brooklands,Brooklands (Manchester Metrolink)",53.41715,-2.32611
9400ZZMABLL1,mantwjaw,"Benchill,Benchill (Manchester Metrolink)",53.38709,-2.25613
9400ZZMABLL2,mantwjda,"Benchill,Benchill (Manchester Metrolink)",53.38708,-2.25629
9400ZZMABNR1,mantwdat,"West Didsbury,Burton Road (Manchester Metrolink)",53.4291,-2.24064
9400ZZMABNR2,mantwdaw,"West Didsbury,Burton Road (Manchester Metrolink)",53.42915,-2.2405
9400ZZMABOB1,mantpjwd,"Besses O Th Barn,Besses o'th'barn (Manchester Metrolink)",53.54207,-2.28616
9400ZZMABOB2,mantpjwg,"Besses O Th Barn,Besses o'th'barn (Manchester Metrolink)",53.54207,-2.28608
9400ZZMABOW1,mantpmad,"Bowker Vale,Bowker Vale (Manchester Metrolink)",53.52484,-2.24991
9400ZZMABOW2,mantpmag,"Bowker Vale,Bowker Vale (Manchester Metrolink)",53.52492,-2.24985
9400ZZMABUR1,mantpjtg,"Bury,Bury (Manchester Metrolink)",53.59084,-2.29726
9400ZZMABUR2,mantpjtj,"Bury,Bury (Manchester Metrolink)",53.59084,-2.29711
9400ZZMABWY1,mantpjpa,"Broadway,Broadway (Manchester Metrolink)",53.47479,-2.29506
9400ZZMABWY2,mantpjpd,"Broadway,Broadway (Manchester Metrolink)",53.47483,-2.29488
9400ZZMACEM1,mantwada,"Droylsden,Cemetery Road (Manchester Metrolink)",53.47993,-2.15502
9400ZZMACEM2,mantwadg,"Droylsden,Cemetery Road (Manchester Metrolink)",53.47984,-2.15502
9400ZZMACHO1,mantpgtd,"Chorlton,Chorlton (Manchester Metrolink)",53.44264,-2.27335
9400ZZMACHO2,mantpjdm,"Chorlton,Chorlton (Manchester Metrolink)",53.44281,-2.27366
9400ZZMACLN1,mantpwpg,"Clayton,Clayton Hall (Manchester Metrolink)",53.48281,-2.18256
9400ZZMACLN2,mantpwpj,"Clayton,Clayton Hall (Manchester Metrolink)",53.48276,-2.18208
9400ZZMACRN1,mantpgwg,"Cornbrook,Cornbrook (Manchester Metrolink)",53.46997,-2.26768
9400ZZMACRN2,mantpjda,"Cornbrook,Cornbrook (Manchester Metrolink)",53.47002,-2.26744
9400ZZMACRU1,mantpmap,"Higher Crumpsall,Crumpsall (Manchester Metrolink)",53.51727,-2.24114
9400ZZMACRU2,mantpmat,"Higher Crumpsall,Crumpsall (Manchester Metrolink)",53.51729,-2.24094
9400ZZMACSS1,mantwjdj,"Wythenshawe,Crossacres (Manchester Metrolink)",53.3833,-2.25621
9400ZZMACSS2,mantwjdm,"Wythenshawe,Crossacres (Manchester Metrolink)",53.38336,-2.25632
9400ZZMACTP1,mantpmtd,"Newton Heath,Central Park (Manchester Metrolink)",53.50163,-2.19917
9400ZZMACTP2,mantpmtg,"Newton Heath,Central Park (Manchester Metrolink)",53.50155,-2.19915
9400ZZMADER1,mantpwag,"Derker,Derker (Manchester Metrolink)",53.54992,-2.10171
9400ZZMADER2,mantpwaj,"Derker,Derker (Manchester Metrolink)",53.5498,-2.10154
9400ZZMADID1,mantwdgw,"Didsbury,Didsbury Village (Manchester Metrolink)",53.41671,-2.22862
9400ZZMADID2,mantwdja,"Didsbury,Didsbury Village (Manchester Metrolink)",53.41671,-2.22841
9400ZZMADNE1,mantpmga,"Sale,Dane Road (Manchester Metrolink)",53.43024,-2.31153
9400ZZMADNE2,mantpmgd,"Sale,Dane Road (Manchester Metrolink)",53.43019,-2.31137
9400ZZMADRO1,mantwadm,"Droylsden,Droylsden (Manchester Metrolink)",53.47953,-2.14518
9400ZZMADRO2,mantwadp,"Droylsden,Droylsden (Manchester Metrolink)",53.47943,-2.14448
9400ZZMAECC1,mantpjtd,"Eccles,Eccles (Manchester Metrolink)",53.48308,-2.33454
9400ZZMAECS1,mantpwmj,"Sportcity,Etihad Campus (Manchester Metrolink)",53.48537,-2.20221
9400ZZMAECS2,mantpwmp,"Sportcity,Etihad Campus (Manchester Metrolink)",53.48537,-2.20063
9400ZZMAEDY1,mantwdjm,"East Didsbury,East Didsbury (Manchester Metrolink)",53.4121,-2.21739
9400ZZMAEDY2,mantwdjg,"East Didsbury,East Didsbury (Manchester Metrolink)",53.41202,-2.21713
9400ZZMAELN1,mantpwpt,"Droylsden,Edge Lane (Manchester Metrolink)",53.48088,-2.16512
9400ZZMAELN2,mantpwpw,"Droylsden,Edge Lane (Manchester Metrolink)",53.48085,-2.1654
9400ZZMAEXC1,mantpjgp,"Salford Quays,Exchange Quay (Manchester Metrolink)",53.4677,-2.28242
9400ZZMAEXC2,mantpjgt,"Salford Quays,Exchange Quay (Manchester Metrolink)",53.46768,-2.28228
9400ZZMAEXS1,mantwmjw,"Manchester City Centre,Exchange Square (Manchester Metrolink)",53.4844,-2.2427
9400ZZMAEXS2,mantwmpa,"Manchester City Centre,Exchange Square (Manchester Metrolink)",53.48455,-2.24262
9400ZZMAFIR1,mantpgtm,"Firswood,Firswood Station (Manchester Metrolink)",53.45129,-2.27773
9400ZZMAFIR2,mantpjdj,"Firswood,Firswood Station (Manchester Metrolink)",53.4513,-2.27769
9400ZZMAFRE1,mantptag,"Chadderton,Freehold (Manchester Metrolink)",53.53739,-2.13871
9400ZZMAFRE2,mantptaj,"Chadderton,Freehold (Manchester Metrolink)",53.53804,-2.13718
9400ZZMAFWH1,mantpmtw,"Failsworth,Failsworth (Manchester Metrolink)",53.51071,-2.1629
9400ZZMAFWH2,mantpmwa,"Failsworth,Failsworth (Manchester Metrolink)",53.51072,-2.16266
9400ZZMAGMX1,mantpgwj,"Manchester City Centre,Deansgate-Castlefield (Manchester Metrolink)",53.47481,-2.25149
9400ZZMAGMX2,mantpjaw,"Manchester City Centre,Deansgate-Castlefield (Manchester Metrolink)",53.47469,-2.25021
9400ZZMAHCY1,mantpjmp,"The Lowry,Harbour City (Manchester Metrolink)",53.47402,-2.29174
9400ZZMAHCY2,mantpjmj,"The Lowry,Harbour City (Manchester Metrolink)",53.47431,-2.28954
9400ZZMAHEA1,mantpjwp,"Heaton Park,Heaton Park (Manchester Metrolink)",53.53037,-2.26699
9400ZZMAHEA2,mantpjwt,"Heaton Park,Heaton Park (Manchester Metrolink)",53.5305,-2.26692
9400ZZMAHOL1,mantpmwg,"Hollinwood,Hollinwood (Manchester Metrolink)",53.51998,-2.14744
9400ZZMAHOL2,mantpmwj,"Hollinwood,Hollinwood (Manchester Metrolink)",53.51962,-2.14729
9400ZZMAHTN1,mantpwma,"Holt Town,Holt Town (Manchester Metrolink)",53.48321,-2.21228
9400ZZMAHTN2,mantpwmd,"Holt Town,Holt Town (Manchester Metrolink)",53.48325,-2.21202
9400ZZMAKNY1,mantwadw,"Milnrow,Kingsway Business Park (Manchester Metrolink)",53.61095,-2.12321
9400ZZMAKNY2,mantwaga,"Milnrow,Kingsway Business Park (Manchester Metrolink)",53.61124,-2.12423
9400ZZMALDY1,mantpjpw,"Ladywell,Ladywell (Manchester Metrolink)",53.48394,-2.32688
9400ZZMALDY2,mantpjta,"Ladywell,Ladywell (Manchester Metrolink)",53.48403,-2.32689
9400ZZMALWY1,mantpjpg,"Langworthy,Langworthy (Manchester Metrolink)",53.48051,-2.29563
9400ZZMALWY2,mantpjpj,"Langworthy,Langworthy (Manchester Metrolink)",53.48067,-2.29631
9400ZZMAMCU1,mantpjmw,"MediaCityUK,MediaCityUK (Manchester Metrolink)",53.47215,-2.29733
9400ZZMAMFT1,mantwjam,"Newall Green,Martinscroft (Manchester Metrolink)",53.39183,-2.27966
9400ZZMAMFT2,mantwjap,"Newall Green,Martinscroft (Manchester Metrolink)",53.39192,-2.27999
9400ZZMAMIL1,mantpwdm,"Milnrow,Milnrow (Manchester Metrolink)",53.60799,-2.11199
9400ZZMAMIL2,mantpwdp,"Milnrow,Milnrow (Manchester Metrolink)",53.60802,-2.11179
9400ZZMAMKT1,mantpjam,"Manchester City Centre,Market Street (Manchester Metrolink)",53.48194,-2.23883
9400ZZMAMKT2,mantpgwp,"Manchester City Centre,Market Street (Manchester Metrolink)",53.48189,-2.23883
9400ZZMAMON1,mantpmpw,"Monsall,Monsall (Manchester Metrolink)",53.50113,-2.21061
9400ZZMAMON2,mantpmta,"Monsall,Monsall (Manchester Metrolink)",53.50105,-2.21061
9400ZZMAMRD1,mantwgwd,"Baguley,Moor Road (Manchester Metrolink)",53.40333,-2.29509
9400ZZMAMRD2,mantwgwg,"Baguley,Moor Road (Manchester Metrolink)",53.40342,-2.2953
9400ZZMANAV1,mantpmjg,"Navigation Road,Navigation Road (Manchester Metrolink)",53.39591,-2.34331
9400ZZMANBD1,mantpwdw,"Newbold,Newbold (Manchester Metrolink)",53.61341,-2.13566
9400ZZMANBD2,mantpwga,"Newbold,Newbold (Manchester Metrolink)",53.61337,-2.13534
9400ZZMANEW1,mantpmtj,"Newton Heath,Newton Heath & Moston (Manchester Metrolink)",53.50419,-2.18366
9400ZZMANHY1,mantpwda,"Newhey,Newhey (Manchester Metrolink)",53.60083,-2.09497
9400ZZMANHY2,mantpwdg,"Newhey,Newhey (Manchester Metrolink)",53.60095,-2.09496
9400ZZMANIS1,mantpwjp,"New Islington,New Islington (Manchester Metrolink)",53.48116,-2.21976
9400ZZMANIS2,mantpwjt,"New Islington,New Islington (Manchester Metrolink)",53.48098,-2.21982
9400ZZMANMR1,mantwgtg,"Northern Moor,Northern Moor (Manchester Metrolink)",53.41456,-2.28804
9400ZZMANMR2,mantwgtj,"Northern Moor,Northern Moor (Manchester Metrolink)",53.41452,-2.28832
9400ZZMAOKS1,mantwgdw,"Oldham,Oldham King Street (Manchester Metrolink)",53.53958,-2.11703
9400ZZMAOKS2,mantwgja,"Oldham,Oldham King Street (Manchester Metrolink)",53.53953,-2.11718
9400ZZMAOLD1,mantpmdm,"Old Trafford,Old Trafford (Manchester Metrolink)",53.45636,-2.28496
9400ZZMAOLD2,mantpmdp,"Old Trafford,Old Trafford (Manchester Metrolink)",53.45628,-2.28466
9400ZZMAOMC1,mantwgjg,"Oldham,Oldham Central (Manchester Metrolink)",53.54029,-2.11232
9400ZZMAOMC2,mantwgjm,"Oldham,Oldham Central (Manchester Metrolink)",53.54025,-2.11223
9400ZZMAOMP1,mantptap,"Oldham Mumps,Oldham Mumps (Manchester Metrolink)",53.54248,-2.10321
9400ZZMAOMP2,mantpwgp,"Oldham Mumps,Oldham Mumps (Manchester Metrolink)",53.54236,-2.1035
9400ZZMAPGD1,mantpjgd,"Piccadilly Gardens,Piccadilly Gardens (Manchester Metrolink)",53.4803,-2.23705
9400ZZMAPGD2,mantpjga,"Piccadilly Gardens,Piccadilly Gardens (Manchester Metrolink)",53.48026,-2.23704
9400ZZMAPIC1,mantpjdw,"Manchester City Centre,Piccadilly (Manchester Metrolink)",53.47732,-2.23121
9400ZZMAPIC2,mantpjdt,"Manchester City Centre,Piccadilly (Manchester Metrolink)",53.47709,-2.23122
9400ZZMAPLL1,mantwjgt,"Peel Hall,Peel Hall (Manchester Metrolink)",53.37375,-2.25038
9400ZZMAPLL2,mantwjgw,"Peel Hall,Peel Hall (Manchester Metrolink)",53.3737,-2.25052
9400ZZMAPOM1,mantpjgm,"Salford Quays,Pomona (Manchester Metrolink)",53.46523,-2.27791
9400ZZMAPOM2,mantpjgj,"Salford Quays,Pomona (Manchester Metrolink)",53.4652,-2.27791
9400ZZMAPWC1,mantpjwj,"Prestwich,Prestwich (Manchester Metrolink)",53.53327,-2.28198
9400ZZMAPWC2,mantpjwm,"Prestwich,Prestwich (Manchester Metrolink)",53.53336,-2.28183
9400ZZMAQRD1,mantwgad,"Smedley,Queens Road (Manchester Metrolink)",53.50172,-2.22673
9400ZZMAQRD2,mantwgag,"Smedley,Queens Road (Manchester Metrolink)",53.50163,-2.22656
9400ZZMARAD1,mantpjtm,"Radcliffe,Radcliffe (Manchester Metrolink)",53.56237,-2.32112
9400ZZMARAD2,mantpjtp,"Radcliffe,Radcliffe (Manchester Metrolink)",53.56241,-2.32094
9400ZZMARIN1,mantwdwm,"Rochdale,Rochdale Interchange (Manchester Metrolink)",53.61737,-2.15508
9400ZZMARIN2,mantwdwp,"Rochdale,Rochdale Interchange (Manchester Metrolink)",53.61726,-2.15557
9400ZZMARND1,mantwjad,"Roundthorn,Roundthorn (Manchester Metrolink)",53.39268,-2.28908
9400ZZMARND2,mantwjag,"Roundthorn,Roundthorn (Manchester Metrolink)",53.39266,-2.28929
9400ZZMARRS1,mantpwgj,"Rochdale,Rochdale Railway Station (Manchester Metrolink)",53.61103,-2.15449
9400ZZMARRS2,mantpwgm,"Rochdale,Rochdale Railway Station (Manchester Metrolink)",53.61099,-2.1544
9400ZZMARWD1,mantwjgd,"Wythenshawe,Robinswood Road (Manchester Metrolink)",53.37681,-2.26
9400ZZMARWD2,mantwjgj,"Wythenshawe,Robinswood Road (Manchester Metrolink)",53.37614,-2.25744
9400ZZMASCH1,mantpmwp,"White Gate,South Chadderton (Manchester Metrolink)",53.52647,-2.14537
9400ZZMASCH2,mantpmwt,"White Gate,South Chadderton (Manchester Metrolink)",53.52646,-2.1452
9400ZZMASDW1,mantwjmd,"Woodhouse Park,Shadowmoss (Manchester Metrolink)",53.36757,-2.2524
9400ZZMASDW2,mantwjmg,"Woodhouse Park,Shadowmoss (Manchester Metrolink)",53.36759,-2.25264
9400ZZMASFD1,mantpmdw,"Stretford,Stretford (Manchester Metrolink)",53.4461,-2.30361
9400ZZMASFD2,mantpmdt,"Stretford,Stretford (Manchester Metrolink)",53.44615,-2.3038
9400ZZMASHA1,mantpwap,"Shaw,Shaw and Crompton (Manchester Metrolink)",53.57631,-2.08963
9400ZZMASHA2,mantpwat,"Shaw,Shaw and Crompton (Manchester Metrolink)",53.57638,-2.08951
9400ZZMASHU1,mantpgwt,"Manchester City Centre,Shudehill (Manchester Metrolink)",53.48525,-2.23918
9400ZZMASHU2,mantpjaj,"Manchester City Centre,Shudehill (Manchester Metrolink)",53.48531,-2.23907
9400ZZMASLE1,mantpmgm,"Sale,Sale (Manchester Metrolink)",53.42412,-2.31909
9400ZZMASLE2,mantpmgj,"Sale,Sale (Manchester Metrolink)",53.42418,-2.31925
9400ZZMASQY1,mantpjgw,"Salford Quays,Salford Quays (Manchester Metrolink)",53.47031,-2.28408
9400ZZMASQY2,mantpjma,"Salford Quays,Salford Quays (Manchester Metrolink)",53.4703,-2.28393
9400ZZMASTW1,mantpgta,"Chorlton,St Werburgh's Road (Manchester Metrolink)",53.43872,-2.26547
9400ZZMASTW2,mantpjdp,"Chorlton,St Werburgh's Road (Manchester Metrolink)",53.43876,-2.26546
9400ZZMASWP1,mantwgpw,"Sale,Sale Water Park (Manchester Metrolink)",53.42814,-2.29112
9400ZZMASWP2,mantwgta,"Sale,Sale Water Park (Manchester Metrolink)",53.42832,-2.29063
9400ZZMATIM1,mantpmja,"Timperley,Timperley (Manchester Metrolink)",53.40422,-2.33834
9400ZZMATIM2,mantpmgw,"Timperley,Timperley (Manchester Metrolink)",53.40427,-2.33849
9400ZZMATRA1,mantpgwd,"Trafford Bar,Trafford Bar (Manchester Metrolink)",53.46189,-2.27711
9400ZZMATRA2,mantpjdg,"Trafford Bar,Trafford Bar (Manchester Metrolink)",53.46181,-2.27702
9400ZZMAVIC2,mantpjad,"Manchester City Centre,Victoria (Manchester Metrolink)",53.48782,-2.2418
9400ZZMAVIC3,mantpjag,"Manchester City Centre,Victoria (Manchester Metrolink)",53.48778,-2.24175
9400ZZMAVPK1,mantpwmw,"Sportcity,Velopark (Manchester Metrolink)",53.48225,-2.1933
9400ZZMAVPK2,mantpwpa,"Sportcity,Velopark (Manchester Metrolink)",53.48219,-2.19311
9400ZZMAWFD1,mantpjtw,"Whitefield,Whitefield (Manchester Metrolink)",53.5512,-2.29535
9400ZZMAWFD2,mantpjwa,"Whitefield,Whitefield (Manchester Metrolink)",53.55128,-2.29527
9400ZZMAWIT1,mantwdag,"Withington,Withington (Manchester Metrolink)",53.4327,-2.24928
9400ZZMAWIT2,mantwdam,"Withington,Withington (Manchester Metrolink)",53.43283,-2.24937
9400ZZMAWPK1,mantwgtp,"Northern Moor,Wythenshawe Park (Manchester Metrolink)",53.40763,-2.2956
9400ZZMAWPK2,mantwgtw,"Northern Moor,Wythenshawe Park (Manchester Metrolink)",53.40771,-2.29565
9400ZZMAWST1,mantpjpm,"Weaste,Weaste (Manchester Metrolink)",53.4824,-2.30773
9400ZZMAWST2,mantpjpt,"Weaste,Weaste (Manchester Metrolink)",53.48248,-2.30768
9400ZZMAWTD1,mantwdgd,"West Didsbury,West Didsbury (Manchester Metrolink)",53.42455,-2.23625
9400ZZMAWTD2,mantwdgt,"West Didsbury,West Didsbury (Manchester Metrolink)",53.42458,-2.23602
9400ZZMAWWD1,mantwgdm,"Westwood,Westwood (Manchester Metrolink)",53.54237,-2.12597
9400ZZMAWWD2,mantwgdp,"Westwood,Westwood (Manchester Metrolink)",53.5423,-2.12587
9400ZZMAWYT1,mantwjdw,"Wythenshawe,Wythenshawe Town Centre (Manchester Metrolink)",53.38002,-2.26371
9400ZZMAWYT2,mantwjdt,"Wythenshawe,Wythenshawe Town Centre (Manchester Metrolink)",53.38003,-2.26381
